{
"type": "FeatureCollection",
"crs": { "type": "name", "properties": { "name": "urn:ogc:def:crs:OGC:1.3:CRS84" } },
                                                                                
"features": [
{ "type": "Feature", "properties": { "LATITUDE": 39.917650, "LONGITUDE": -105.002552, "MatchType": "ExactMatch", "NumMatch": "Exact", "Name": "ADAMS COUNTY BOCES", "Address": "1400 W. 122nd Avenue", "City": "Westminster", "State": "CO", "Zip": "80234" }, "geometry": { "type": "Point", "coordinates": [ -105.0025521, 39.9176499 ] } },
{ "type": "Feature", "properties": { "LATITUDE": 40.254200, "LONGITUDE": -103.812093, "MatchType": "ExactMatch", "NumMatch": "Exact", "Name": "CENTENNIAL BOCES (Fort Morgan Office)", "Address": "821 W Platte Ave", "City": "Fort Morgan", "State": "CO", "Zip": "80701" }, "geometry": { "type": "Point", "coordinates": [ -103.812093, 40.2542 ] } },
{ "type": "Feature", "properties": { "LATITUDE": 40.406634, "LONGITUDE": -104.768178, "MatchType": "ExactMatch", "NumMatch": "Exact", "Name": "CENTENNIAL BOCES (Greeley Office)", "Address": "2020 Clubhouse Dr", "City": "Greeley", "State": "CO", "Zip": "80634" }, "geometry": { "type": "Point", "coordinates": [ -104.7681777, 40.40663396 ] } },
{ "type": "Feature", "properties": { "LATITUDE": 38.892909, "LONGITUDE": -104.713700, "MatchType": "ExactMatch", "NumMatch": "Exact", "Name": "COLORADO DIGITAL BOCES", "Address": "4035 Tutt Blvd.", "City": "Colorado Springs", "State": "CO", "Zip": "80922" }, "geometry": { "type": "Point", "coordinates": [ -104.7137, 38.89290921 ] } },
{ "type": "Feature", "properties": { "LATITUDE": 39.327800, "LONGITUDE": -103.747900, "MatchType": "IsPOBOX", "NumMatch": "NoMatch", "Name": "EAST CENTRAL BOCES", "Address": "P O Box 910", "City": "Limon", "State": "CO", "Zip": "80828-0910" }, "geometry": { "type": "Point", "coordinates": [ -103.7479, 39.3278 ] } },
{ "type": "Feature", "properties": { "LATITUDE": 39.686089, "LONGITUDE": -104.922300, "MatchType": "ExactMatch", "NumMatch": "Exact", "Name": "EXPEDITIONARY_BOCES_LEARNING_SCHOOL_", "Address": "1700 S Holly St", "City": "Denver", "State": "CO", "Zip": "80222" }, "geometry": { "type": "Point", "coordinates": [ -104.9223, 39.68608889 ] } },
{ "type": "Feature", "properties": { "LATITUDE": 40.014500, "LONGITUDE": -105.201216, "MatchType": "ExactMatch", "NumMatch": "Exact", "Name": "FRONT RANGE BOCES", "Address": "6500 Arapahoe Road", "City": "Boulder", "State": "CO", "Zip": "80303" }, "geometry": { "type": "Point", "coordinates": [ -105.201216, 40.0145 ] } },
{ "type": "Feature", "properties": { "LATITUDE": 39.255800, "LONGITUDE": -108.534200, "MatchType": "MatchToZip", "NumMatch": "NoMatch", "Name": "GRAND VALLEY BOCES", "Address": "2508 Blichmann Avenue", "City": "Grand Junction", "State": "CO", "Zip": "81505-1010" }, "geometry": { "type": "Point", "coordinates": [ -108.5342, 39.2558 ] } },
{ "type": "Feature", "properties": { "LATITUDE": 39.256800, "LONGITUDE": -106.305100, "MatchType": "KnownAlternateName", "NumMatch": "Exact", "Name": "MOUNTAIN BOCES", "Address": "1713 Mt Lincoln Dr.", "City": "Leadville", "State": "CO", "Zip": "80461-3723" }, "geometry": { "type": "Point", "coordinates": [ -106.3051, 39.25680015 ] } },
{ "type": "Feature", "properties": { "LATITUDE": 39.738918, "LONGITUDE": -105.523065, "MatchType": "KnownAlternateName", "NumMatch": "Exact", "Name": "MT. EVANS BOCES", "Address": "320 Hwy 103", "City": "Idaho Springs", "State": "CO", "Zip": "80452" }, "geometry": { "type": "Point", "coordinates": [ -105.5230649, 39.73891792 ] } },
{ "type": "Feature", "properties": { "LATITUDE": 40.647000, "LONGITUDE": -102.630000, "MatchType": "WeakName", "NumMatch": "Approx", "Name": "NORTHEAST BOCES", "Address": "301 W Powell", "City": "Haxtun", "State": "CO", "Zip": "80731" }, "geometry": { "type": "Point", "coordinates": [ -102.63, 40.647 ] } },
{ "type": "Feature", "properties": { "LATITUDE": 40.486400, "LONGITUDE": -106.829400, "MatchType": "IsPOBOX", "NumMatch": "NoMatch", "Name": "NORTHWEST BOCES", "Address": "P O Box 773390", "City": "Steamboat Springs", "State": "CO", "Zip": "80477-3390" }, "geometry": { "type": "Point", "coordinates": [ -106.8294, 40.4864 ] } },
{ "type": "Feature", "properties": { "LATITUDE": 38.796400, "LONGITUDE": -104.795532, "MatchType": "ExactMatch", "NumMatch": "Exact", "Name": "PIKES PEAK BOCES", "Address": "2883 South Circle Drive", "City": "Colorado Springs", "State": "CO", "Zip": "80906" }, "geometry": { "type": "Point", "coordinates": [ -104.7955321, 38.7964 ] } },
{ "type": "Feature", "properties": { "LATITUDE": 40.087500, "LONGITUDE": -108.817500, "MatchType": "ExactMatch", "NumMatch": "Approx", "Name": "RIO BLANCO", "Address": "402 W. Main, Suite 219", "City": "Rangely", "State": "CO", "Zip": "81648" }, "geometry": { "type": "Point", "coordinates": [ -108.8175, 40.0875 ] } },
{ "type": "Feature", "properties": { "LATITUDE": 37.472300, "LONGITUDE": -108.501400, "MatchType": "DirectionPrefixRemoved", "NumMatch": "Approx", "Name": "SAN JUAN (Dolores Office)", "Address": "100 North 6th Street", "City": "Dolores", "State": "CO", "Zip": "81323" }, "geometry": { "type": "Point", "coordinates": [ -108.5014, 37.4723 ] } },
{ "type": "Feature", "properties": { "LATITUDE": 37.441100, "LONGITUDE": -107.852800, "MatchType": "MatchToZip", "NumMatch": "NoMatch", "Name": "SAN JUAN (Durango Office)", "Address": "201 E 12th_St", "City": "Durango", "State": "CO", "Zip": "81301" }, "geometry": { "type": "Point", "coordinates": [ -107.8528, 37.4411 ] } },
{ "type": "Feature", "properties": { "LATITUDE": 37.448400, "LONGITUDE": -105.866400, "MatchType": "ExactMatch", "NumMatch": "Approx", "Name": "SAN LUIS VALLEY_", "Address": "2261 Enterprise Dr.", "City": "Alamosa", "State": "CO", "Zip": "81101" }, "geometry": { "type": "Point", "coordinates": [ -105.8664, 37.4484 ] } },
{ "type": "Feature", "properties": { "LATITUDE": 37.942400, "LONGITUDE": -103.515100, "MatchType": "IsPOBOX", "NumMatch": "NoMatch", "Name": "SANTA FE TRAIL", "Address": "P O Box 980", "City": "La Junta", "State": "CO", "Zip": "81050" }, "geometry": { "type": "Point", "coordinates": [ -103.5151, 37.9424 ] } },
{ "type": "Feature", "properties": { "LATITUDE": 38.338541, "LONGITUDE": -104.697824, "MatchType": "ExactMatch", "NumMatch": "Exact", "Name": "SOUTH CENTRAL", "Address": "323 Purcell Blvd", "City": "Pueblo", "State": "CO", "Zip": "81007" }, "geometry": { "type": "Point", "coordinates": [ -104.6978242, 38.33854136 ] } },
{ "type": "Feature", "properties": { "LATITUDE": 37.918000, "LONGITUDE": -102.639600, "MatchType": "IsPOBOX", "NumMatch": "NoMatch", "Name": "SOUTHEAST", "Address": "P O Box 1137", "City": "Lamar", "State": "CO", "Zip": "81052" }, "geometry": { "type": "Point", "coordinates": [ -102.6396, 37.918 ] } },
{ "type": "Feature", "properties": { "LATITUDE": 38.152400, "LONGITUDE": -107.763900, "MatchType": "WeakName", "NumMatch": "Approx", "Name": "UNCOMPAHGRE", "Address": "1115 W. Clinton", "City": "Ridgway", "State": "CO", "Zip": "81432-0728" }, "geometry": { "type": "Point", "coordinates": [ -107.7639, 38.1524 ] } },
{ "type": "Feature", "properties": { "LATITUDE": 38.856600, "LONGITUDE": -104.904400, "MatchType": "ExactMatch", "NumMatch": "Approx", "Name": "UTE PASS", "Address": "405 El Monte Place", "City": "Manitou Springs", "State": "CO", "Zip": "80829" }, "geometry": { "type": "Point", "coordinates": [ -104.9044, 38.8566 ] } }
]
}
